Attitude_time_ms, Pitch, Pitchspeed, Roll, Rollspeed, Yaw, Yawspeed,Global Position Time ms, Altitude, Heading, Latitude, Longitude, Relative Altitude, Velocity X, Velocity Y, Velocity Z,IMU time us, Acceleration X, Acceleration Y, Gyro X, Gyro Y,Local Position Time ms, Velocity X, Velocity Y, Velocity Z, Position X, Position Y, Position Z
2680644,-0.006831,0.000346,0.004493,-0.000237,1.601343,0.001156, , , , , , , , , ,2680652000,-0.063106,-0.013869,-0.000880,0.000157,2680640,-0.002690,0.000541,0.001097,-0.001046,0.006323,-0.054912
2680652,-0.006826,0.000536,0.004489,-0.000940,1.601352,0.000839, , , , , , , , , ,2680676000,-0.077471,-0.064147,0.000984,-0.000908,2680672,-0.003055,0.001053,0.000787,-0.001118,0.006334,-0.054981
2680664,-0.006816,0.000727,0.004478,-0.000770,1.601357,-0.001930, , , , , , , , , ,2680696000,-0.085851,-0.030628,-0.003543,0.000157,2680704,-0.002575,0.000485,0.000636,-0.001155,0.006339,-0.055063
2680672,-0.006812,-0.000709,0.004474,0.000511,1.601330,-0.002860, , , , , , , , , ,2680716000,-0.072683,-0.021052,0.000984,0.000423,2680736,-0.002462,0.000151,0.000322,-0.001182,0.006325,-0.055148
2680684,-0.006810,0.000166,0.004470,-0.000274,1.601312,-0.001133, , , , , , , , , ,2680732000,-0.069091,-0.030628,-0.000880,-0.003838,2681272,-0.001397,0.001005,-0.000853,-0.001082,0.006042,-0.056360
2680692,-0.006803,0.000717,0.004454,-0.001362,1.601313,0.000627, , , , , , , , , ,2680752000,-0.063106,-0.025840,0.000185,-0.000376,2681304,-0.001205,0.000793,0.000114,-0.001068,0.006086,-0.056316
2680704,-0.006797,0.000159,0.004403,-0.003250,1.601288,-0.002133, , , , , , , , , ,2680772000,-0.077471,-0.006686,-0.000880,0.000157,2681336,-0.001452,0.000989,0.000151,-0.001046,0.006121,-0.056269
2680716,-0.006804,-0.000512,0.004402,0.001461,1.601282,0.000006, , , , , , , , , ,2681272000,-0.081053,-0.019705,0.000434,0.000152,2681376,-0.001738,0.000862,0.000523,-0.001039,0.006153,-0.056199
2680724,-0.006806,-0.000425,0.004415,0.002909,1.601276,-0.000262, , , , , , , , , ,2681296000,-0.077461,-0.061603,-0.000099,-0.000381,2681408,-0.001774,0.001188,0.000612,-0.001040,0.006179,-0.056136
2680732,-0.006832,-0.003572,0.004416,0.000923,1.601273,0.000077, , , , , , , , , ,2681316000,-0.036760,-0.010128,-0.001963,0.000951,2681936,-0.002216,0.000098,0.000026,-0.001161,0.006171,-0.055705
2680744,-0.006850,-0.000717,0.004415,0.001558,1.601267,-0.000035, , , , , , , , , ,2681332000,-0.070279,-0.030479,0.000167,0.000951,2681968,-0.002874,0.000233,-0.000565,-0.001182,0.006153,-0.055716
2680752,-0.006848,-0.000129,0.004414,-0.000310,1.601277,0.000730, , , , , , , , , ,2681352000,-0.055914,-0.031676,0.001233,0.000152,2682008,-0.002787,0.000190,-0.001303,-0.001227,0.006135,-0.055758
2680764,-0.006844,0.000551,0.004409,0.003193,1.601268,-0.000355, , , , , , , , , ,2681376000,-0.048731,-0.031676,-0.003827,-0.000381,2682040,-0.003304,0.000464,-0.001750,-0.001274,0.006126,-0.055809
2681272,-0.006987,0.000784,0.004122,-0.000100,1.601159,-0.004140, , , , , , , , , ,2681392000,-0.052322,-0.042450,-0.000898,-0.001712,2682536,-0.000960,0.001076,0.002826,-0.001119,0.006456,-0.055227
2681284,-0.006979,0.000363,0.004115,-0.000538,1.601113,-0.002909, , , , , , , , , ,2681412000,-0.066687,-0.035267,0.000700,-0.000914,2682568,-0.000927,0.000717,0.002770,-0.001081,0.006421,-0.055141
2681296,-0.006999,-0.001439,0.004115,-0.000112,1.601117,0.001254, , , , , , , , , ,2681912000,-0.060647,-0.006526,0.000691,-0.000110,2682608,-0.001125,0.001367,0.002104,-0.001050,0.006391,-0.055071
2681304,-0.007005,-0.000722,0.004118,0.000330,1.601118,0.000542, , , , , , , , , ,2681932000,-0.066633,-0.005329,-0.001174,-0.000377,2682640,-0.001439,0.001542,0.001717,-0.001037,0.006385,-0.055041
2681312,-0.007004,0.000593,0.004114,-0.001322,1.601123,0.001491, , , , , , , , , ,2681952000,-0.090575,0.010233,0.000158,0.001488,2682672,-0.001457,0.001957,0.001128,-0.001031,0.006393,-0.055040
2681324,-0.006995,0.000300,0.004095,-0.000735,1.601126,0.000130, , , , , , , , , ,2681972000,-0.077407,-0.023285,0.000957,0.000955,2683168,-0.000479,0.002236,-0.000827,-0.000815,0.006623,-0.055493
2681332,-0.006980,-0.000431,0.004098,-0.000035,1.601120,-0.000703, , , , , , , , , ,2681992000,-0.066633,-0.031665,-0.003038,0.001488,2683208,-0.000688,0.001358,-0.001990,-0.000796,0.006610,-0.055573
2681344,-0.007002,-0.001466,0.004087,-0.000414,1.601110,-0.000172, , , , , , , , , ,2682012000,-0.072618,-0.012512,0.000957,-0.000909,2683240,-0.000531,0.001338,-0.001808,-0.000781,0.006577,-0.055644
2681352,-0.006999,-0.000461,0.004089,0.000933,1.601112,0.002066, , , , , , , , , ,2682032000,-0.054662,-0.029271,0.000957,-0.001442,2683272,-0.000390,0.000991,-0.002171,-0.000776,0.006545,-0.055721
2681364,-0.007013,-0.001915,0.004090,0.000293,1.601121,-0.000204, , , , , , , , , ,2682052000,-0.083392,-0.002935,0.001223,0.001221,2683304,-0.000669,0.000682,-0.002416,-0.000771,0.006501,-0.055795
2681376,-0.007026,-0.001194,0.004063,-0.003112,1.601110,-0.001151, , , , , , , , , ,2682532000,-0.046156,-0.039998,-0.001196,-0.000368,2683808,0.000080,-0.000627,-0.001656,-0.000617,0.005702,-0.056067
2681384,-0.007014,0.001209,0.004044,-0.002320,1.601093,-0.002028, , , , , , , , , ,2682552000,-0.071308,-0.017241,0.004395,-0.000637,2683840,0.000589,-0.000432,-0.001338,-0.000609,0.005698,-0.056052
2681392,-0.007019,-0.000955,0.004031,-0.001070,1.601073,-0.002237, , , , , , , , , ,2682572000,-0.071308,-0.007664,-0.000665,-0.000104,2683872,0.000732,-0.000459,-0.001578,-0.000599,0.005697,-0.056038
2681404,-0.007014,-0.001106,0.004050,0.002121,1.601077,-0.000014, , , , , , , , , ,2682592000,-0.035395,-0.038788,-0.001464,0.003358,2683904,0.001137,-0.000633,-0.001292,-0.000586,0.005692,-0.056024
2681412,-0.007022,-0.000661,0.004058,-0.000381,1.601069,-0.000904, , , , , , , , , ,2682612000,-0.074900,-0.034000,0.000666,-0.000371,2684440,0.003180,0.000926,0.000488,0.000008,0.005960,-0.055579
2681912,-0.007109,-0.000475,0.003762,0.000069,1.600941,-0.000044, , , , , , , , , ,2682632000,-0.066520,-0.020832,-0.000399,0.001494,2684472,0.002613,0.001087,0.000492,0.000009,0.006010,-0.055527
2681924,-0.007119,-0.001452,0.003774,0.001305,1.601007,0.006173, , , , , , , , , ,2682652000,-0.046169,-0.081884,0.002531,0.000695,2684504,0.002581,0.000495,0.000501,0.000002,0.006044,-0.055473
2681932,-0.007130,0.000848,0.003768,-0.001397,1.601013,-0.000572, , , , , , , , , ,2682672000,-0.041381,0.000716,0.001199,0.003092,2684536,0.002603,0.000189,0.000501,-0.000007,0.006059,-0.055424
2681944,-0.007118,0.001007,0.003748,-0.001313,1.601020,0.000184, , , , , , , , , ,2683172000,-0.064126,-0.031606,-0.003861,-0.000371, , , , , , , 
2681952,-0.007116,0.000593,0.003744,-0.000066,1.601027,0.000559, , , , , , , , , ,2683192000,-0.094053,0.021067,0.001199,0.000428, , , , , , , 
2681964,-0.007111,-0.000544,0.003744,0.000675,1.601052,0.001973, , , , , , , , , ,2683212000,-0.056943,-0.029212,-0.000931,0.001494, , , , , , , 
2681972,-0.007110,0.000112,0.003752,0.001330,1.601063,0.000980, , , , , , , , , ,2683232000,-0.042578,-0.022029,0.001732,-0.000637, , , , , , , 
2681984,-0.007121,-0.000733,0.003766,0.001646,1.601043,-0.002482, , , , , , , , , ,2683252000,-0.056943,-0.014846,0.000666,0.002293, , , , , , , 
2681992,-0.007115,0.000970,0.003748,-0.002060,1.601035,-0.001542, , , , , , , , , ,2683276000,-0.067717,-0.060336,-0.000132,0.000695, , , , , , , 
2682004,-0.007114,0.000077,0.003718,-0.002118,1.601018,-0.001115, , , , , , , , , ,2683292000,-0.073703,0.004307,0.001998,-0.000371, , , , , , , 
2682012,-0.007124,-0.000715,0.003720,0.000701,1.601031,0.001454, , , , , , , , , ,2683796000,-0.062820,-0.024388,-0.002279,-0.000095, , , , , , , 
2682024,-0.007124,0.000641,0.003703,-0.001735,1.601042,0.000174, , , , , , , , , ,2683812000,-0.056834,-0.077060,0.001183,-0.001160, , , , , , , 
2682032,-0.007133,-0.000730,0.003701,-0.000076,1.601049,0.000314, , , , , , , , , ,2683832000,-0.048454,-0.011220,0.000650,0.002036, , , , , , , 
2682044,-0.007174,-0.003949,0.003688,-0.001298,1.601040,-0.000792, , , , , , , , , ,2683852000,-0.050849,-0.004037,0.002248,-0.001160, , , , , , , 
2682052,-0.007174,0.001541,0.003691,0.001404,1.601024,-0.001824, , , , , , , , , ,2683872000,-0.062820,-0.041147,-0.002545,-0.000627, , , , , , , 
2682532,-0.007055,-0.000008,0.003339,0.000608,1.601073,-0.000065, , , , , , , , , ,2683892000,-0.080776,-0.057907,-0.001214,0.001503, , , , , , , 
2682544,-0.007048,0.001076,0.003323,0.002351,1.601052,-0.003116, , , , , , , , , ,2683912000,-0.097535,-0.029176,-0.000947,0.000172, , , , , , , 
2682552,-0.007045,-0.000522,0.003356,0.003939,1.601037,-0.001399, , , , , , , , , ,2684432000,-0.077185,-0.016008,0.000384,0.000438, , , , , , , 
2682564,-0.007043,0.000592,0.003379,0.001782,1.601019,-0.001163, , , , , , , , , ,2684452000,-0.053243,0.033073,-0.002279,-0.000894, , , , , , , 
2682572,-0.007040,0.000456,0.003374,-0.000571,1.601006,-0.001301, , , , , , , , , ,2684472000,-0.081973,-0.035162,0.000118,0.001769, , , , , , , 
2682584,-0.007033,0.001289,0.003390,0.001844,1.601031,0.002973, , , , , , , , , ,2684492000,-0.081973,-0.032768,0.001183,-0.001426, , , , , , , 
2682592,-0.007013,0.003121,0.003382,-0.002354,1.601040,0.001471, , , , , , , , , ,2684512000,-0.084367,-0.041147,0.000650,0.002036, , , , , , , 
2682604,-0.007009,-0.000550,0.003358,-0.001241,1.601047,-0.000030, , , , , , , , , ,2684532000,-0.050849,-0.016008,0.000384,-0.001426, , , , , , , 
2682612,-0.007010,-0.000350,0.003364,0.001092,1.601027,-0.002498, , , , , , , , , ,2684552000,-0.074830,-0.047117,0.000653,-0.000097, , , , , , , 
2682624,-0.007034,-0.001167,0.003354,-0.001113,1.601023,0.000555, , , , , , , , , , , , , , , , , , , , , 
2682632,-0.007025,0.001452,0.003349,-0.001303,1.601026,0.000749, , , , , , , , , , , , , , , , , , , , , 
2682644,-0.007025,-0.000076,0.003314,-0.003089,1.601026,-0.000361, , , , , , , , , , , , , , , , , , , , , 
2682652,-0.007022,0.001010,0.003320,0.003711,1.601024,-0.000052, , , , , , , , , , , , , , , , , , , , , 
2682664,-0.007013,0.000683,0.003343,0.000687,1.601030,0.002181, , , , , , , , , , , , , , , , , , , , , 
2682676,-0.006989,0.002822,0.003350,0.000314,1.601056,0.001879, , , , , , , , , , , , , , , , , , , , , 
2683164,-0.006709,0.002238,0.003199,-0.002382,1.601137,-0.001757, , , , , , , , , , , , , , , , , , , , , 
2683172,-0.006708,-0.000726,0.003173,-0.004494,1.601137,0.000002, , , , , , , , , , , , , , , , , , , , , 
2683184,-0.006702,0.000167,0.003146,-0.000667,1.601138,0.000640, , , , , , , , , , , , , , , , , , , , , 
2683192,-0.006692,-0.000067,0.003154,0.001811,1.601137,-0.000133, , , , , , , , , , , , , , , , , , , , , 
2683204,-0.006672,0.001926,0.003154,-0.000662,1.601140,0.000349, , , , , , , , , , , , , , , , , , , , , 
2683212,-0.006647,0.000830,0.003139,-0.001076,1.601137,0.001263, , , , , , , , , , , , , , , , , , , , , 
2683224,-0.006640,-0.000211,0.003131,-0.000133,1.601152,0.001381, , , , , , , , , , , , , , , , , , , , , 
2683232,-0.006638,-0.000429,0.003143,0.001817,1.601147,-0.000400, , , , , , , , , , , , , , , , , , , , , 
2683244,-0.006654,-0.000436,0.003176,0.002038,1.601156,0.000254, , , , , , , , , , , , , , , , , , , , , 
2683252,-0.006636,0.002214,0.003183,0.001477,1.601147,-0.000976, , , , , , , , , , , , , , , , , , , , , 
2683264,-0.006614,0.000168,0.003205,-0.000807,1.601158,0.002096, , , , , , , , , , , , , , , , , , , , , 
2683276,-0.006598,0.000877,0.003184,-0.001512,1.601171,0.000935, , , , , , , , , , , , , , , , , , , , , 
2683284,-0.006606,-0.001557,0.003169,-0.001770,1.601189,0.002401, , , , , , , , , , , , , , , , , , , , , 
2683292,-0.006607,-0.000393,0.003173,0.002247,1.601193,-0.000874, , , , , , , , , , , , , , , , , , , , , 
2683304,-0.006598,0.000552,0.003192,0.000840,1.601191,0.001047, , , , , , , , , , , , , , , , , , , , , 
2683784,-0.006422,0.000303,0.003080,-0.000482,1.601120,-0.001516, , , , , , , , , , , , , , , , , , , , , 
2683792,-0.006418,0.000164,0.003059,-0.002508,1.601112,-0.001165, , , , , , , , , , , , , , , , , , , , , 
2683804,-0.006409,0.001271,0.003049,-0.000085,1.601134,0.002444, , , , , , , , , , , , , , , , , , , , , 
2683812,-0.006408,-0.000739,0.003057,0.001366,1.601135,0.000193, , , , , , , , , , , , , , , , , , , , , 
2683824,-0.006398,0.001159,0.003064,0.000409,1.601128,-0.000968, , , , , , , , , , , , , , , , , , , , , 
2683832,-0.006383,0.001935,0.003064,0.000085,1.601116,-0.001369, , , , , , , , , , , , , , , , , , , , , 
2683844,-0.006378,0.000099,0.003072,0.000903,1.601104,-0.000685, , , , , , , , , , , , , , , , , , , , , 
2683852,-0.006386,-0.000824,0.003085,0.002557,1.601096,-0.000719, , , , , , , , , , , , , , , , , , , , , 
2683864,-0.006394,-0.002061,0.003113,0.001051,1.601079,-0.001055, , , , , , , , , , , , , , , , , , , , , 
2683872,-0.006405,-0.001473,0.003102,-0.001402,1.601088,0.001324, , , , , , , , , , , , , , , , , , , , , 
2683884,-0.006408,-0.000687,0.003075,0.000127,1.601076,-0.002557, , , , , , , , , , , , , , , , , , , , , 
2683892,-0.006401,0.000629,0.003070,-0.000305,1.601073,-0.000426, , , , , , , , , , , , , , , , , , , , , 
2683904,-0.006397,-0.000197,0.003071,0.000558,1.601073,0.000697, , , , , , , , , , , , , , , , , , , , , 
2683912,-0.006393,0.000145,0.003065,-0.000503,1.601066,-0.000527, , , , , , , , , , , , , , , , , , , , , 
2684432,-0.006503,0.000210,0.003000,0.000508,1.601051,0.000956, , , , , , , , , , , , , , , , , , , , , 
2684444,-0.006501,-0.000337,0.002995,-0.000785,1.601034,-0.001926, , , , , , , , , , , , , , , , , , , , , 
2684452,-0.006504,-0.000768,0.002989,-0.001682,1.601038,0.001243, , , , , , , , , , , , , , , , , , , , , 
2684464,-0.006517,-0.001915,0.002980,-0.001076,1.601032,-0.000605, , , , , , , , , , , , , , , , , , , , , 
2684472,-0.006512,0.002757,0.002984,-0.000857,1.601020,-0.001357, , , , , , , , , , , , , , , , , , , , , 
2684484,-0.006474,0.002689,0.002978,-0.000335,1.601014,0.000203, , , , , , , , , , , , , , , , , , , , , 
2684492,-0.006481,-0.001383,0.002995,0.001772,1.600998,-0.001656, , , , , , , , , , , , , , , , , , , , , 
2684504,-0.006470,0.000271,0.003010,0.000456,1.600996,0.000575, , , , , , , , , , , , , , , , , , , , , 
2684512,-0.006458,0.001170,0.003009,-0.000494,1.600987,-0.000850, , , , , , , , , , , , , , , , , , , , , 
2684524,-0.006459,-0.001093,0.003027,0.000914,1.600962,-0.002239, , , , , , , , , , , , , , , , , , , , , 
2684532,-0.006467,-0.001467,0.003034,0.000403,1.600946,-0.001919, , , , , , , , , , , , , , , , , , , , , 
2684544,-0.006469,-0.000507,0.003000,-0.004085,1.600926,-0.001169, , , , , , , , , , , , , , , , , , , , , 
2684552,-0.006473,0.000862,0.002999,0.001693,1.600900,-0.002126, , , , , , , , , , , , , , , , , , , , , 
